$GNGGA,174512.000,4049.990871,N,07413.758735,W,1,10,1.58,164.246,M,-34.174,M,,*4F
$GPGSA,A,3,19,06,12,17,23,,,,,,,,1.78,1.58,0.82*00
$GLGSA,A,3,86,78,71,85,70,,,,,,,,1.78,1.58,0.82*1B
$GNRMC,174512.000,A,4049.990871,N,07413.758735,W,0.27,214.38,250719GSA,A,3,19,06,03,17,23,,,,,,,,1.63,1.41,0.82*02
$GLGSA,A,3,86,78,71,87,85,70,,,,,,,1.63,1.41,0.82*16
$GNRMC,174940.000,A,4049.997994,N,07413.756617,W,0.58,215.19,250719,,,A*69
$GNVTG,215.19,T,,M,0.58,N,1.07,K,A*26
$GNGGA,174941.000,4049.997801,N,07413.756308,W,1,11,1.41,162.966,M,-34.174,M,,*47
$GPGSA,A,3,19,06,03,17,23,,,,,,,,1.63,1.41,0.82*02
$GLGSA,A,3,86,78,71,87,85,70,,,,,,,1.63,1.41,0.82*16
$GPGSV,4,1,13,06,74,353,29,19,67,080,33,17,53,100,23,02,44,270,*73
$GPGSV,4,2,13,12,37,306,,09,15,108,21,23,14,069,17,03,11,039,22*7C
$GPGSV,4,3,13,28,10,164,,05,10,205,,25,04,327,,24,02,262,*70
$GPGSV,4,4,13,49,,,*76
$GLGSV,3,1,10,86,50,046,33,71,47,085,29,87,40,311,22,77,33,275,*64
$GLGSV,3,2,10,72,30,150,15,70,19,032,23,78,16,329,19,76,16,218,*69
$GLGSV,3,3,10,85,07,087,30,88,02,285,*6F
$GNRMC,174941.000,A,4049.997801,N,07413.756308,W,0.93,157.86,250719,,,A*6A
$GNVTG,157.86,T,,M,0.93,N,1.72,K,A*20
$GNGGA,174942.000,4049.997673,N,07413.755879,W,1,11,1.41,162.979,M,-34.174,M,,*4F
$GPGSA,A,3,19,06,03,17,23,,,,,,,,1.63,1.41,0.82*02
$GLGSA,A,3,86,78,71,87,85,70,,,,,,,1.63,1.41,0.82*16
$GNRMC,174942.000,A,4049.997673,N,07413.755879,W,0.57,157.86,250719,,,A*64
$GNVTG,157.86,T,,M,0.57,N,1.05,K,A*28
$GNGGA,174943.000,4049.997519,N,07413.755995,W,1,11,1.41,162.915,M,-34.174,M,,*48
$GPGSA,A,3,19,06,03,17,23,,,,,,,,1.63,1.41,0.82*02
$GLGSA,A,3,86,78,71,87,85,70,,,,,,,1.63,1.41,0.82*16
$GNRMC,174943.000,A,4049.997519,N,07413.755995,W,0.29,157.86,250719,,,A*60
$GNVTG,157.86,T,,M,0.29,N,0.54,K,A*24
$GNGGA,174944.000,4049.997353,N,07413.755977,W,1,11,1.41,162.891,M,-34.174,M,,*46
$GPGSA,A,3,19,06,03,17,23,,,,,,,,1.63,1.41,0.82*02
$GLGSA,A,3,86,78,71,87,85,70,,,,,,,1.63,1.41,0.82*16
$GNRMC,174944.000,A,4049.997353,N,07413.755977,W,0.35,157.86,250719,,,A*6E
$GNVTG,157.86,T,,M,0.35,N,0.65,K,A*2B
$GNGGA,174945.000,4049.997347,N,07413.755697,W,1,11,1.41,162.936,M,-34.174,M,,*4F
$GPGSA,A,3,19,06,03,17,23,,,,,,,,1.63,1.41,0.82*02
$GLGSA,A,3,86,78,71,87,85,70,,,,,,,1.63,1.41,0.82*16
$GNRMC,174945.000,A,4049.997347,N,07413.755697,W,0.80,159.00,250719,,,A*65
$GNVTG,159.00,T,,M,0.80,N,1.49,K,A*2A
$GNGGA,174946.000,4049.997244,N,07413.755918,W,1,11,1.41,162.721,M,-34.174,M,,*4E
$GPGSA,A,3,19,06,03,17,23,,,,,,,,1.63,1.41,0.82*02
$GLGSA,A,3,86,78,71,87,85,70,,,,,,,1.63,1.41,0.82*16
$GPGSV,4,1,13,06,74,353,28,19,67,080,33,17,53,100,23,02,44,270,*72
$GPGSV,4,2,13,12,37,306,,09,15,108,21,23,14,069,17,03,11,039,22*7C
$GPGSV,4,3,13,28,10,164,,05,10,205,,25,04,327,,24,02,262,*70
$GPGSV,4,4,13,49,,,*76
$GLGSV,3,1,10,86,50,046,32,71,47,085,28,87,40,311,24,77,33,275,*62
$GLGSV,3,2,10,72,30,150,,70,19,032,21,78,16,329,20,76,16,218,*65
$GLGSV,3,3,10,85,07,087,30,88,02,285,*6F
$GNRMC,174946.000,A,4049.997244,N,07413.755918,W,0.58,159.00,250719,,,A*69
$GNVTG,159.00,T,,M,0.58,N,1.08,K,A*2A
$GNGGA,174947.000,4049.997207,N,07413.755605,W,1,11,1.41,162.728,M,-34.174,M,,*42
$GPGSA,A,3,19,06,03,17,23,,,,,,,,1.63,1.41,0.82*02
$GLGSA,A,3,86,78,71,87,85,70,,,,,,,1.63,1.41,0.82*16
$GNRMC,174947.000,A,4049.997207,N,07413.755605,W,0.54,159.00,250719,,,A*60
$GNVTG,159.00,T,,M,0.54,N,0.99,K,A*2F
$GNGGA,174948.000,4049.997326,N,07413.755042,W,1,11,1.41,162.832,M,-34.174,M,,*4E
$GPGSA,A,3,19,06,03,17,23,,,,,,,,1.63,1.41,0.82*02
$GLGSA,A,3,86,78,71,87,85,70,,,,,,,1.63,1.41,0.82*16
$GNRMC,174948.000,A,4049.997326,N,07413.755042,W,0.61,207.70,250719,,,A*61
$GNVTG,207.70,T,,M,0.61,N,1.12,K,A*24
$GNGGA,174949.000,4049.997241,N,07413.754905,W,1,11,1.41,162.762,M,-34.174,M,,*4E
$GPGSA,A,3,19,06,03,17,23,,,,,,,,1.63,1.41,0.82*02
$GLGSA,A,3,86,78,71,87,85,70,,,,,,,1.63,1.41,0.82*16
$GNRMC,174949.000,A,4049.997241,N,07413.754905,W,0.41,207.70,250719,,,A*69
$GNVTG,207.70,T,,M,0.41,N,0.75,K,A*26
$GNGGA,174950.000,4049.997505,N,07413.754405,W,1,10,1.44,162.991,M,-34.174,M,,*4A
$GPGSA,A,3,19,06,03,17,,,,,,,,,1.66,1.44,0.83*02
$GLGSA,A,3,86,78,71,87,85,70,,,,,,,1.66,1.44,0.83*17
$GNRMC,174950.000,A,4049.997505,N,07413.754405,W,0.56,207.70,250719,,,A*6D
$GNVTG,207.70,T,,M,0.56,N,1.03,K,A*20
$GNGGA,174951.000,4049.997456,N,07413.754108,W,1,10,1.44,163.063,M,-34.174,M,,*41
$GPGSA,A,3,19,06,03,17,,,,,,,,,1.66,1.44,0.83*02
$GLGSA,A,3,86,78,71,87,85,70,,,,,,,1.66,1.44,0.83*17
$GPGSV,4,1,13,06,74,353,27,19,67,080,33,17,53,100,20,02,44,270,*7E
$GPGSV,4,2,13,12,37,306,,51,32,224,,09,15,108,22,23,14,069,14*74
$GPGSV,4,3,13,03,11,039,22,28,10,164,,05,10,205,,25,04,327,*7B
$GPGSV,4,4,13,24,02,262,*49
$GLGSV,3,1,10,86,50,046,30,71,47,085,27,87,40,311,24,77,33,275,19*67
$GLGSV,3,2,10,72,30,150,,70,19,032,20,78,16,329,22,76,16,218,*66
$GLGSV,3,3,10,85,07,087,30,88,02,285,*6F
$GNRMC,174951.000,A,4049.997456,N,07413.754108,W,0.32,207.70,250719,,,A*61
$GNVTG,207.70,T,,M,0.32,N,0.59,K,A*2C
$GNGGA,174952.000,4049.997297,N,07413.753742,W,1,10,1.44,163.142,M,-34.174,M,,*44
$GPGSA,A,3,19,06,03,17,,,,,,,,,1.66,1.44,0.83*02
$GLGSA,A,3,86,78,71,87,85,70,,,,,,,1.66,1.44,0.83*17
$GNRMC,174952.000,A,4049.997297,N,07413.753742,W,0.85,189.40,250719,,,A*6C
$GNVTG,189.40,T,,M,0.85,N,1.58,K,A*26
$GNGGA,174953.000,4049.997049,N,07413.753554,W,1,10,1.44,163.223,M,-34.174,M,,*45
$GPGSA,A,3,19,06,03,17,,,,,,,,,1.66,1.44,0.83*02
$GLGSA,A,3,86,78,71,87,85,70,,,,,,,1.66,1.44,0.83*17
$GNRMC,174953.000,A,4049.997049,N,07413.753554,W,0.56,189.40,250719,,,A*67
$GNVTG,189.40,T,,M,0.56,N,1.04,K,A*21
$GNGGA,174954.000,4049.996638,N,07413.753581,W,1,10,1.44,163.254,M,-34.174,M,,*4B
$GPGSA,A,3,19,06,03,17,,,,,,,,,1.66,1.44,0.83*02
$GLGSA,A,3,86,78,71,87,85,70,,,,,,,1.66,1.44,0.83*17
$GNRMC,174954.000,A,4049.996638,N,07413.753581,W,0.29,189.40,250719,,,A*61
$GNVTG,189.40,T,,M,0.29,N,0.55,K,A*2C
$GNGGA,174955.000,4049.996590,N,07413.753367,W,1,10,1.44,163.397,M,-34.174,M,,*4B
$GPGSA,A,3,19,06,03,17,,,,,,,,,1.66,1.44,0.83*02
$GLGSA,A,3,86,78,71,87,85,70,,,,,,,1.66,1.44,0.83*17
$GNRMC,174955.000,A,4049.996590,N,07413.753367,W,0.81,221.83,250719,,,A*63
$GNVTG,221.83,T,,M,0.81,N,1.51,K,A*25
$GNGGA,174956.000,4049.996469,N,07413.753314,W,1,10,1.44,163.484,M,-34.174,M,,*4E
$GPGSA,A,3,19,06,03,17,,,,,,,,,1.66,1.44,0.83*02
$GLGSA,A,3,86,78,71,87,85,70,,,,,,,1.66,1.44,0.83*17
$GPGSV,4,1,13,06,74,353,26,19,67,080,34,17,53,100,20,02,44,270,*78
$GPGSV,4,2,13,12,37,306,,51,32,224,,09,15,108,23,23,14,069,14*75
$GPGSV,4,3,13,03,11,039,24,28,10,164,,05,10,205,,25,04,327,*7D
$GPGSV,4,4,13,24,02,262,*49
$GLGSV,3,1,10,86,50,046,30,71,47,085,24,87,40,311,22,77,33,275,*6A
$GLGSV,3,2,10,72,30,150,,70,19,032,17,78,16,329,21,76,16,218,*61
$GLGSV,3,3,10,85,07,087,30,88,02,285,*6F
$GNRMC,174956.000,A,4049.996469,N,07413.753314,W,1.02,220.83,250719,,,A*68
$GNVTG,220.83,T,,M,1.02,N,1.88,K,A*2A
$GNGGA,174957.000,4049.996400,N,07413.753599,W,1,10,1.44,163.491,M,-34.174,M,,*47
$GPGSA,A,3,19,06,03,17,,,,,,,,,1.66,1.44,0.83*02
$GLGSA,A,3,86,78,71,87,85,70,,,,,,,1.66,1.44,0.83*17
$GNRMC,174957.000,A,4049.996400,N,07413.753599,W,1.41,333.34,250719,,,A*6D
$GNVTG,333.34,T,,M,1.41,N,2.62,K,A*25
$GNGGA,174958.000,4049.996427,N,07413.753882,W,1,11,1.41,163.580,M,-34.174,M,,*4F
$GPGSA,A,3,19,06,03,17,23,,,,,,,,1.63,1.41,0.82*02
$GLGSA,A,3,86,78,71,87,85,70,,,,,,,1.63,1.41,0.82*16
$GNRMC,174958.000,A,4049.996427,N,07413.753882,W,1.43,340.27,250719,,,A*64
$GNVTG,340.27,T,,M,1.43,N,2.65,K,A*26
$GNGGA,174959.000,4049.996346,N,07413.753928,W,1,11,1.41,163.792,M,-34.174,M,,*4E
$GPGSA,A,3,19,06,03,17,23,,,,,,,,1.63,1.41,0.82*02
$GLGSA,A,3,86,78,71,87,85,70,,,,,,,1.63,1.41,0.82*16
$GNRMC,174959.000,A,4049.996346,N,07413.753928,W,0.48,340.27,250719,,,A*6E
$GNVTG,340.27,T,,M,0.48,N,0.89,K,A*2C
$GNGGA,175000.000,4049.996447,N,07413.753895,W,1,11,1.41,163.829,M,-34.174,M,,*44
$GPGSA,A,3,19,06,03,17,23,,,,,,,,1.63,1.41,0.82*02
$GLGSA,A,3,86,78,71,87,85,70,,,,,,,1.63,1.41,0.82*16
$GNRMC,175000.000,A,4049.996447,N,07413.753895,W,0.89,0.48,250719,,,A*68
$GNVTG,0.48,T,,M,0.89,N,1.65,K,A*2C
$GNGGA,175001.000,4049.996474,N,07413.753715,W,1,11,1.41,163.979,M,-34.174,M,,*46
$GPGSA,A,3,19,06,03,17,23,,,,,,,,1.63,1.41,0.82*02
$GLGSA,A,3,86,78,71,87,85,70,,,,,,,1.63,1.41,0.82*16
$GPGSV,4,1,13,06,74,353,25,19,67,080,33,17,53,100,20,02,44,270,*7C
$GPGSV,4,2,13,12,37,306,,44,25,234,,09,15,108,24,23,14,069,18*7D
$GPGSV,4,3,13,03,11,039,24,28,10,164,,05,10,205,,25,04,327,*7D
$GPGSV,4,4,13,24,02,262,*49
$GLGSV,3,1,10,86,50,046,29,71,47,084,25,87,40,311,17,77,33,275,*64
$GLGSV,3,2,10,72,30,150,23,70,19,031,16,78,16,329,22,76,16,218,*61
$GLGSV,3,3,10,85,07,087,29,88,02,285,*67
$GNRMC,175001.000,A,4049.996474,N,07413.753715,W,0.39,0.48,250719,,,A*65
$GNVTG,0.48,T,,M,0.39,N,0.72,K,A*20
$GNGGA,175002.000,4049.996472,N,07413.753683,W,1,11,1.41,164.067,M,-34.174,M,,*4C
$GPGSA,A,3,19,06,03,17,23,,,,,,,,1.63,1.41,0.82*02
$GLGSA,A,3,86,78,71,87,85,70,,,,,,,1.63,1.41,0.82*16
$GNRMC,175002.000,A,4049.996472,N,07413.753683,W,0.63,43.96,250719,,,A*55
$GNVTG,43.96,T,,M,0.63,N,1.16,K,A*18
$GNGGA,175003.000,4049.996876,N,07413.753485,W,1,11,1.41,164.181,M,-34.174,M,,*48
$GPGSA,A,3,19,06,03,17,23,,,,,,,,1.63,1.41,0.82*02
$GLGSA,A,3,86,78,71,87,85,70,,,,,,,1.63,1.41,0.82*16
$GNRMC,175003.000,A,4049.996876,N,07413.753485,W,1.40,19.93,250719,,,A*52
